{
  "airports":{
    "country":"Denmark",
    "count":31,
    "airport":[
      {
        "id":607,
        "iata":"AAR",
        "icao":"EKAH",
        "createdAt":"2020-09-21T20:07:03.891+02:00",
        "latitude":56.2999992371,
        "longitude":10.619000434899998,
        "href":"..\/countries\/denmark\/xml\/airport-aar.json"
      },
      {
        "id":608,
        "iata":"BLL",
        "icao":"EKBI",
        "createdAt":"2020-09-21T20:07:03.891+02:00",
        "latitude":55.7402992249,
        "longitude":9.15178012848,
        "href":"..\/countries\/denmark\/xml\/airport-bll.json"
      },
      {
        "id":609,
        "iata":"CPH",
        "icao":"EKCH",
        "createdAt":"2020-09-21T20:07:03.891+02:00",
        "latitude":55.617900848389,
        "longitude":12.656000137329,
        "href":"..\/countries\/denmark\/xml\/airport-cph.json"
      },
      {
        "id":610,
        "iata":"EBJ",
        "icao":"EKEB",
        "createdAt":"2020-09-21T20:07:03.891+02:00",
        "latitude":55.525902,
        "longitude":8.5534,
        "href":"..\/countries\/denmark\/xml\/airport-ebj.json"
      },
      {
        "id":611,
        "icao":"EKGH",
        "createdAt":"2020-09-21T20:07:03.891+02:00",
        "name":"Grønholt Hillerød Airport",
        "city":"Gronholt",
        "country":"Denmark",
        "geo":{
          "latitude":55.94139862060547,
          "longitude":12.382200241088867,
          "altitude":97
        },
        "temporal":{
          "timezone":1,
          "tzTimezone":"Europe\/Copenhagen",
          "dst":"E"
        },
        "type":"airport",
        "source1":"OurAirports"
      },
      {
        "id":612,
        "iata":"KRP",
        "icao":"EKKA",
        "createdAt":"2020-09-21T20:07:03.891+02:00",
        "latitude":56.29750061035156,
        "longitude":9.124629974365234,
        "href":"..\/countries\/denmark\/xml\/airport-krp.json"
      },
      {
        "id":613,
        "iata":"BYR",
        "icao":"EKLS",
        "createdAt":"2020-09-21T20:07:03.891+02:00",
        "latitude":57.277198791503906,
        "longitude":11.000100135803223,
        "href":"..\/countries\/denmark\/xml\/airport-byr.json"
      },
      {
        "id":614,
        "iata":"MRW",
        "icao":"EKMB",
        "createdAt":"2020-09-21T20:07:03.891+02:00",
        "latitude":54.699299,
        "longitude":11.4401,
        "href":"..\/countries\/denmark\/xml\/airport-mrw.json"
      },
      {
        "id":615,
        "iata":"ODE",
        "icao":"EKOD",
        "createdAt":"2020-09-21T20:07:03.891+02:00",
        "latitude":55.47669982910156,
        "longitude":10.330900192260742,
        "href":"..\/countries\/denmark\/xml\/airport-ode.json"
      },
      {
        "id":616,
        "icao":"EKPB",
        "createdAt":"2020-09-21T20:07:03.891+02:00",
        "name":"Kruså-Padborg Airport",
        "city":"Krusa-padborg",
        "country":"Denmark",
        "geo":{
          "latitude":54.87030029296875,
          "longitude":9.279009819030762,
          "altitude":88
        },
        "temporal":{
          "timezone":1,
          "tzTimezone":"Europe\/Copenhagen",
          "dst":"E"
        },
        "type":"airport",
        "source1":"OurAirports"
      },
      {
        "id":617,
        "iata":"RKE",
        "icao":"EKRK",
        "createdAt":"2020-09-21T20:07:03.891+02:00",
        "latitude":55.585601806640625,
        "longitude":12.131400108337402,
        "href":"..\/countries\/denmark\/xml\/airport-rke.json"
      },
      {
        "id":618,
        "iata":"RNN",
        "icao":"EKRN",
        "createdAt":"2020-09-21T20:07:03.891+02:00",
        "latitude":55.06330108642578,
        "longitude":14.759599685668945,
        "href":"..\/countries\/denmark\/xml\/airport-rnn.json"
      },
      {
        "id":619,
        "iata":"SGD",
        "icao":"EKSB",
        "createdAt":"2020-09-21T20:07:03.891+02:00",
        "latitude":54.96440124511719,
        "longitude":9.791729927062988,
        "href":"..\/countries\/denmark\/xml\/airport-sgd.json"
      },
      {
        "id":621,
        "iata":"SKS",
        "icao":"EKSP",
        "createdAt":"2020-09-21T20:07:03.891+02:00",
        "latitude":55.221048,
        "longitude":9.26702,
        "href":"..\/countries\/denmark\/xml\/airport-sks.json"
      },
      {
        "id":622,
        "iata":"SQW",
        "icao":"EKSV",
        "createdAt":"2020-09-21T20:07:03.891+02:00",
        "latitude":56.550201416015625,
        "longitude":9.172980308532715,
        "href":"..\/countries\/denmark\/xml\/airport-sqw.json"
      },
      {
        "id":623,
        "iata":"TED",
        "icao":"EKTS",
        "createdAt":"2020-09-21T20:07:03.891+02:00",
        "latitude":57.06880187988281,
        "longitude":8.705220222473145,
        "href":"..\/countries\/denmark\/xml\/airport-ted.json"
      },
      {
        "id":624,
        "icao":"EKVD",
        "createdAt":"2020-09-21T20:07:03.891+02:00",
        "name":"Kolding Vamdrup Airfield",
        "city":"Kolding",
        "country":"Denmark",
        "geo":{
          "latitude":55.436298,
          "longitude":9.33092,
          "altitude":143
        },
        "temporal":{
          "timezone":1,
          "tzTimezone":"Europe\/Copenhagen",
          "dst":"E"
        },
        "type":"airport",
        "source1":"OurAirports"
      },
      {
        "id":626,
        "icao":"EKVH",
        "createdAt":"2020-09-21T20:07:03.891+02:00",
        "name":"Vesthimmerlands Flyveplads",
        "city":"Vesthimmerland",
        "country":"Denmark",
        "geo":{
          "latitude":56.846901,
          "longitude":9.45861,
          "altitude":119
        },
        "temporal":{
          "timezone":1,
          "tzTimezone":"Europe\/Copenhagen",
          "dst":"E"
        },
        "type":"airport",
        "source1":"OurAirports"
      },
      {
        "id":627,
        "iata":"STA",
        "icao":"EKVJ",
        "createdAt":"2020-09-21T20:07:03.891+02:00",
        "latitude":55.9901008605957,
        "longitude":8.353910446166992,
        "href":"..\/countries\/denmark\/xml\/airport-sta.json"
      },
      {
        "id":628,
        "iata":"AAL",
        "icao":"EKYT",
        "createdAt":"2020-09-21T20:07:03.891+02:00",
        "latitude":57.0927589138,
        "longitude":9.84924316406,
        "href":"..\/countries\/denmark\/xml\/airport-aal.json"
      },
      {
        "id":4080,
        "icao":"EKSS",
        "createdAt":"2020-09-21T20:07:03.891+02:00",
        "name":"Samsø Airport",
        "city":"Samsoe",
        "country":"Denmark",
        "geo":{
          "latitude":55.88949966430664,
          "longitude":10.613699913024902,
          "altitude":1
        },
        "temporal":{
          "timezone":1,
          "tzTimezone":"Europe\/Copenhagen",
          "dst":"E"
        },
        "type":"airport",
        "source1":"OurAirports"
      },
      {
        "id":5579,
        "iata":"CNL",
        "icao":"EKSN",
        "createdAt":"2020-09-21T20:07:03.891+02:00",
        "latitude":57.503502,
        "longitude":10.2294,
        "href":"..\/countries\/denmark\/xml\/airport-cnl.json"
      },
      {
        "id":6855,
        "icao":"EKKL",
        "createdAt":"2020-09-21T20:07:03.891+02:00",
        "name":"Kalundborg Airport",
        "city":"Kalundborg",
        "country":"Denmark",
        "geo":{
          "latitude":55.70029830932617,
          "longitude":11.25,
          "altitude":1
        },
        "temporal":{
          "timezone":1,
          "tzTimezone":"Europe\/Copenhagen",
          "dst":"E"
        },
        "type":"airport",
        "source1":"OurAirports"
      },
      {
        "id":8097,
        "icao":"EKTD",
        "createdAt":"2020-09-21T20:07:03.891+02:00",
        "name":"Tønder Airport",
        "city":"Toender",
        "country":"Denmark",
        "geo":{
          "latitude":54.9296989440918,
          "longitude":8.840570449829102,
          "altitude":1
        },
        "temporal":{
          "timezone":1,
          "tzTimezone":"Europe\/Copenhagen",
          "dst":"E"
        },
        "type":"airport",
        "source1":"OurAirports"
      },
      {
        "id":9075,
        "icao":"EKEL",
        "createdAt":"2020-09-21T20:07:03.891+02:00",
        "name":"Endelave Flyveplads",
        "city":"Endelage",
        "country":"Denmark",
        "geo":{
          "latitude":55.7565,
          "longitude":10.2485,
          "altitude":15
        },
        "temporal":{
          "timezone":1,
          "tzTimezone":"Europe\/Copenhagen",
          "dst":"E"
        },
        "type":"airport",
        "source1":"OurAirports"
      },
      {
        "id":9136,
        "icao":"EKHG",
        "createdAt":"2020-09-21T20:07:03.891+02:00",
        "name":"Herning Airport",
        "city":"Herning",
        "country":"Denmark",
        "geo":{
          "latitude":56.18470001220703,
          "longitude":9.044449806213379,
          "altitude":167
        },
        "temporal":{
          "timezone":1,
          "tzTimezone":"Europe\/Copenhagen",
          "dst":"E"
        },
        "type":"airport",
        "source1":"OurAirports"
      },
      {
        "id":11129,
        "icao":"EKNB",
        "createdAt":"2020-09-21T20:07:03.891+02:00",
        "name":"Nordborg Flyveplads",
        "city":"Nordborg",
        "country":"Denmark",
        "geo":{
          "latitude":55.07485,
          "longitude":9.753379,
          "altitude":0
        },
        "temporal":{
          "timezone":1,
          "tzTimezone":"\\N",
          "dst":"E"
        },
        "type":"airport",
        "source1":"OurAirports"
      },
      {
        "id":11719,
        "icao":"EKAE",
        "createdAt":"2020-09-21T20:07:03.891+02:00",
        "name":"Ærø Airport",
        "city":"Aero",
        "country":"Denmark",
        "geo":{
          "latitude":54.85279846191406,
          "longitude":10.456399917602539,
          "altitude":3
        },
        "temporal":{
          "timezone":1,
          "tzTimezone":"\\N",
          "dst":"E"
        },
        "type":"airport",
        "source1":"OurAirports"
      },
      {
        "id":12931,
        "icao":"SVFT",
        "createdAt":"2020-09-21T20:07:03.891+02:00",
        "name":"El Fuentero Airport",
        "city":"Svenborg",
        "country":"Denmark",
        "geo":{
          "latitude":7.099999904632568,
          "longitude":-69.58333587646484,
          "altitude":420
        },
        "temporal":{
          "timezone":1,
          "tzTimezone":"\\N",
          "dst":"E"
        },
        "type":"airport",
        "source1":"OurAirports"
      },
      {
        "id":13405,
        "icao":"EKAT",
        "createdAt":"2020-09-21T20:07:03.891+02:00",
        "name":"Anholt Airport",
        "city":"Anholt",
        "country":"Denmark",
        "geo":{
          "latitude":56.698898315399994,
          "longitude":11.5558996201,
          "altitude":23
        },
        "temporal":{
          "timezone":1,
          "tzTimezone":"\\N",
          "dst":"E"
        },
        "type":"airport",
        "source1":"OurAirports"
      },
      {
        "id":13435,
        "icao":"EKAC",
        "createdAt":"2020-09-21T20:07:03.891+02:00",
        "name":"Aarhus Seaplne Terminal",
        "city":"Aarhus",
        "country":"Denmark",
        "geo":{
          "latitude":56.151717,
          "longitude":10.248428,
          "altitude":0
        },
        "temporal":{
          "timezone":2,
          "tzTimezone":"\\N",
          "dst":"E"
        },
        "type":"airport",
        "source1":"OurAirports"
      }
    ]
  }
}